,City ID,City,Cloudiness,Country,Date,Humidity,Lat,Long,Temp,Wind Speed
0,300,ushuaia,75,AR,1611953364,75,-54.8,-68.3,5.0,11.32
1,721,harindanga,20,IN,1611953364,82,22.0383,88.3214,17.0,2.06
2,801,coihaique,20,CL,1611953364,39,-45.5752,-72.0662,17.0,5.14
3,800,kruisfontein,1,ZA,1611953200,80,-34.0033,24.7314,17.22,0.45
4,803,albany,64,US,1611952789,43,42.6001,-73.9662,-8.84,5.36
5,804,mount gambier,90,AU,1611953365,100,-37.8333,140.7667,14.0,4.12
6,800,altar,0,MX,1611953365,34,30.7,-111.8167,20.0,4.92
7,802,mataura,29,NZ,1611953236,80,-46.1927,168.8643,8.89,3.58
8,800,saint-philippe,0,RE,1611953240,65,-21.3585,55.7679,24.32,2.06
9,803,kushmurun,62,KZ,1611953365,93,52.4503,64.6311,-7.79,3.67
10,802,port elizabeth,40,ZA,1611953183,88,-33.918,25.5701,17.0,3.09
11,800,ranfurly,4,NZ,1611953365,74,-45.1333,170.1,8.89,0.47
12,804,severo-kurilsk,98,RU,1611953366,91,50.6789,156.125,-6.21,6.33
13,802,aklavik,40,CA,1611953366,68,68.2191,-135.0107,-35.0,1.03
14,800,oranjemund,0,NA,1611953366,82,-28.55,16.4333,16.69,6.5
15,804,laguna,90,US,1611953366,93,38.421,-121.4238,10.22,0.73
16,803,tanabe,79,JP,1611953366,75,33.7333,135.3667,3.51,8.3
17,804,bluff,87,NZ,1611953201,80,-46.6,168.3333,8.89,3.58
18,500,airai,100,TL,1611953366,100,-8.9266,125.4092,16.47,1.96
19,600,jamestown,90,US,1611952608,73,42.097,-79.2353,-6.37,7.2
20,803,new norfolk,62,AU,1611953230,91,-42.7826,147.0587,15.45,0.88
21,803,kaitangata,78,NZ,1611953242,74,-46.2817,169.8464,12.78,0.89
22,800,lavrentiya,0,RU,1611953249,82,65.5833,-171.0,-26.57,5.95
23,801,tuktoyaktuk,20,CA,1611953206,74,69.4541,-133.0374,-37.0,1.54
24,800,tanout,0,NE,1611953367,22,14.9709,8.8879,19.23,5.94
25,800,poum,8,NC,1611953256,75,-20.2333,164.0167,26.41,6.95
26,500,avarua,20,CK,1611953234,79,-21.2078,-159.775,29.0,3.6
27,803,saskylakh,59,RU,1611953259,79,71.9167,114.0833,-39.33,0.66
28,804,severnyy-kospashskiy,100,RU,1611953367,63,59.0925,57.8008,-9.44,1.34
29,803,punta arenas,75,CL,1611953367,62,-53.15,-70.9167,10.0,10.29
30,800,carnarvon,2,AU,1611953231,89,-24.8667,113.6333,26.0,3.09
31,804,asau,96,RO,1611952811,57,46.4333,26.4,2.78,2.28
32,804,maningrida,98,AU,1611953280,90,-12.0667,134.2667,24.99,2.51
33,800,saldanha,0,ZA,1611953207,89,-33.0117,17.9442,18.35,5.67
34,804,hermanus,87,ZA,1611952987,85,-34.4187,19.2345,16.67,1.71
35,802,banjar,40,ID,1611952821,89,-8.19,114.9675,26.0,1.54
36,802,cherskiy,48,RU,1611953238,83,68.75,161.3,-35.91,1.96
37,804,ust-nera,100,RU,1611953368,79,64.5667,143.2,-26.95,1.31
38,804,chokurdakh,100,RU,1611953206,86,70.6333,147.9167,-31.28,3.41
39,801,georgetown,20,MY,1611953258,78,5.4112,100.3354,24.43,1.54
40,800,katsuura,0,JP,1611953248,48,35.1333,140.3,2.77,8.23
41,600,odoyev,100,RU,1611953369,98,53.9393,36.6864,-3.67,5.53
42,800,tessalit,0,ML,1611952800,23,20.1986,1.0114,18.69,5.45
43,800,pangnirtung,1,CA,1611953241,77,66.1451,-65.7125,-23.0,2.06
44,804,sitka,90,US,1611952804,52,57.0531,-135.33,3.0,8.23
45,804,rikitea,97,PF,1611953234,67,-23.1203,-134.9692,26.6,2.9
46,802,saint-georges,40,GD,1611953369,65,12.0564,-61.7485,29.0,8.75
47,800,bethel,1,US,1611953236,45,41.3712,-73.414,-7.6,7.2
48,803,kapaa,75,US,1611953216,69,22.0752,-159.319,23.94,8.75
49,800,tuatapere,4,NZ,1611953243,80,-46.1333,167.6833,8.89,3.58
50,801,longyearbyen,20,SJ,1611953128,55,78.2186,15.6401,-19.0,10.29
51,801,cape town,20,ZA,1611953114,82,-33.9258,18.4232,19.67,5.14
52,804,tiksi,100,RU,1611953225,84,71.6872,128.8694,-35.66,1.91
53,500,mar del plata,75,AR,1611953100,39,-38.0023,-57.5575,25.87,5.66
54,804,verkhnyaya inta,99,RU,1611952830,85,65.9811,60.3094,-23.91,7.11
55,800,atuona,3,PF,1611953203,77,-9.8,-139.0333,25.93,8.56
56,601,nikolskoye,75,RU,1611953370,93,59.7035,30.7861,0.19,4.0
57,800,cornelius,1,US,1611953371,36,35.4868,-80.8601,6.15,1.54
58,804,castro,97,BR,1611953238,93,-24.7911,-50.0119,20.58,3.28
59,802,aksarka,26,RU,1611953273,80,66.5606,67.7975,-41.85,1.17
60,801,port hedland,16,AU,1611953280,83,-20.3167,118.5667,28.0,1.54
61,800,tura,0,IN,1611953122,53,25.5198,90.2201,13.27,0.82
62,803,broome,75,US,1611953236,62,42.2506,-75.833,-9.9,5.66
63,501,labuhan,100,ID,1611952842,86,-6.8844,112.2051,25.42,7.22
64,802,kirensk,29,RU,1611953371,79,57.7853,108.1119,-39.97,1.51
65,800,guerrero negro,0,MX,1611952792,55,27.9769,-114.0611,19.11,6.02
66,800,ilo,0,PE,1611953371,67,-17.6394,-71.3375,22.47,2.81
67,804,kasongo-lunda,100,CD,1611953372,86,-6.4667,16.8167,21.93,0.2
68,600,alihe,100,CN,1611953372,84,50.5667,123.7167,-30.16,0.34
69,801,ribeira grande,20,PT,1611953238,77,38.5167,-28.7,16.0,3.6
70,800,uthal,0,PK,1611953372,71,25.8072,66.6219,12.18,0.85
71,600,honningsvag,75,NO,1611953243,79,70.9821,25.9704,-6.0,5.66
72,800,adrar,0,MR,1611952623,21,20.5022,-10.0711,21.08,4.12
73,804,lebu,98,CL,1611953189,94,-37.6167,-73.65,14.62,1.62
74,804,thompson,90,CA,1611953103,78,55.7435,-97.8558,-14.0,2.57
75,800,busselton,0,AU,1611953233,84,-33.65,115.3333,15.45,1.34
76,501,vaini,75,TO,1611953236,94,-21.2,-175.2,25.0,6.17
77,600,xinqing,100,CN,1611953373,86,48.2333,129.5,-28.08,0.95
78,800,maniitsoq,0,GL,1611952812,75,65.4167,-52.9,-5.11,2.23
79,801,nouakchott,15,MR,1611953089,43,18.0858,-15.9785,23.0,4.12
80,803,los llanos de aridane,75,ES,1611953260,94,28.6585,-17.9182,18.87,3.09
81,500,mahebourg,75,MU,1611953238,78,-20.4081,57.7,27.0,5.14
82,803,hithadhoo,56,MV,1611953235,76,-0.6,73.0833,27.43,4.31
83,804,kataysk,93,RU,1611953373,94,56.289,62.5841,-13.67,4.02
84,804,bredasdorp,90,ZA,1611953233,74,-34.5322,20.0403,20.08,1.76
85,803,backo gradiste,75,RS,1611953374,100,45.5328,20.0283,7.0,3.6
86,500,lucapa,77,AO,1611953374,94,-8.4192,20.7447,18.99,0.4
87,800,cabo san lucas,1,MX,1611953249,60,22.8909,-109.9124,26.65,7.72
88,600,nantucket,90,US,1611953374,67,41.2835,-70.0995,-8.95,10.8
89,800,nanpiao,5,CN,1611953222,84,41.0982,120.7479,-8.11,2.95
90,801,east london,11,ZA,1611953251,64,-33.0153,27.9116,22.19,0.52
91,800,khatanga,0,RU,1611953216,73,71.9667,102.5,-42.63,0.92
92,800,port alfred,1,ZA,1611953233,87,-33.5906,26.891,18.33,0.89
93,804,dikson,100,RU,1611953230,85,73.5069,80.5464,-35.07,2.7
94,802,sioux lookout,40,CA,1611953375,67,50.1001,-91.917,-10.0,2.57
95,804,makakilo city,90,US,1611952854,69,21.3469,-158.0858,22.8,3.6
96,800,vidalia,1,US,1611953375,28,32.2177,-82.4135,13.0,1.49
97,804,kamenka,88,RU,1611952827,92,51.3223,42.7678,0.0,7.32
98,803,salalah,75,OM,1611953242,64,17.0151,54.0924,23.0,3.6
99,800,chitral,2,PK,1611953375,47,35.8462,71.7858,-2.53,3.08
100,300,torbay,90,CA,1611952990,93,47.6666,-52.7314,-3.32,9.26
101,804,tual,100,ID,1611952819,75,-5.6667,132.75,28.41,6.13
102,800,victoria,0,HK,1611953197,71,22.2855,114.1577,14.11,0.45
103,800,sivas,0,TR,1611953221,85,39.7916,37.0019,-12.0,2.06
104,804,ostrovnoy,100,RU,1611953230,93,68.0531,39.5131,-13.54,7.96
105,803,naze,53,JP,1611953072,74,28.3667,129.4833,9.58,6.2
106,802,tomatlan,50,MX,1611952828,21,19.9333,-105.25,36.75,3.91
107,803,ciudad bolivar,62,VE,1611953376,43,8.1222,-63.5497,31.68,5.18
108,802,hobart,40,AU,1611953192,94,-42.8794,147.3294,15.75,2.57
109,600,chapais,90,CA,1611953376,78,49.7834,-74.8492,-17.0,5.14
110,501,hilo,90,US,1611953234,83,19.7297,-155.09,19.74,2.12
111,801,kavaratti,11,IN,1611953377,72,10.5669,72.642,26.84,4.01
112,800,santa fe,7,AR,1611953101,31,-31.6333,-60.7,32.83,0.93
113,804,carutapera,100,BR,1611953377,75,-1.195,-46.02,27.36,4.42
114,804,provideniya,93,RU,1611952806,82,64.3833,-173.3,-22.44,3.75
115,804,chagoda,97,RU,1611953377,97,59.164,35.3285,-4.01,3.42
116,804,camacupa,98,AO,1611953377,89,-12.0167,17.4833,17.8,1.68
117,800,talnakh,1,RU,1611953283,67,69.4865,88.3972,-35.52,0.64
118,804,barrow,90,US,1611953239,70,71.2906,-156.7887,-24.0,4.63
119,800,tias,0,ES,1611953377,94,28.9611,-13.645,19.0,2.06
120,800,westport,1,US,1611953293,42,41.1415,-73.3579,-6.17,10.29
121,500,lasa,75,IT,1611953274,86,46.6166,10.7002,-0.01,1.03
122,804,codrington,100,AU,1611953267,81,-38.2667,141.9667,15.81,5.2
123,800,kalanwali,0,IN,1611953378,47,29.85,74.95,8.2,0.89
124,800,saint-augustin,0,CA,1611953267,91,51.226,-58.6502,-8.24,5.6
125,804,butaritari,93,KI,1611953242,75,3.0707,172.7902,27.0,8.33
126,800,tazovskiy,0,RU,1611952839,79,67.4667,78.7,-38.61,2.86
127,803,baruun-urt,68,MN,1611952845,84,46.6806,113.2792,-23.19,1.81
128,800,half moon bay,1,US,1611953196,76,37.4636,-122.4286,11.1,2.57
129,803,saint-francois,75,FR,1611953379,76,46.4154,3.9054,8.95,3.09
130,801,hasaki,20,JP,1611953244,51,35.7333,140.8333,0.22,4.12
131,800,safaga,0,EG,1611952811,52,26.7292,33.9365,15.67,5.9
132,800,dothan,1,US,1611953325,27,31.2232,-85.3905,15.29,2.57
133,501,soe,100,ID,1611953379,96,-9.8607,124.284,19.55,1.75
134,804,ukiah,90,US,1611953257,71,39.1502,-123.2078,8.67,1.52
135,501,kroya,100,ID,1611953355,89,-7.6331,109.2461,24.04,1.45
136,600,sharkan,100,RU,1611953379,86,57.2989,53.8712,-3.33,0.89
137,800,surt,0,LY,1611953379,48,31.2089,16.5887,18.42,6.14
138,500,kavieng,94,PG,1611953380,82,-2.5744,150.7967,28.23,6.58
139,801,yellowknife,20,CA,1611953006,76,62.456,-114.3525,-26.57,3.6
140,804,baherden,93,TM,1611953380,41,38.4362,57.4316,11.51,1.64
141,803,acapulco,75,MX,1611953139,66,16.8634,-99.8901,30.0,5.66
142,803,raga,52,SS,1611953380,18,8.4596,25.678,24.11,3.37
143,803,ponta do sol,68,PT,1611953246,75,32.6667,-17.1,13.04,2.24
144,804,koulamoutou,100,GA,1611953380,92,-1.1303,12.4736,23.05,0.77
145,803,klaksvik,75,FO,1611953253,74,62.2266,-6.589,0.0,3.09
146,800,akyab,0,MM,1611952835,76,20.15,92.9,16.17,2.94
147,804,svetlogorsk,95,BY,1611953380,97,52.6333,29.7333,-6.71,4.86
148,800,george,0,ZA,1611953381,77,-33.963,22.4617,17.0,1.03
149,600,kudinovo,100,RU,1611953381,86,54.9994,36.2533,-2.78,4.92
150,804,vostok,100,RU,1611953381,89,46.4856,135.8833,-27.58,1.21
151,800,qaanaaq,0,GL,1611953213,60,77.484,-69.3632,-26.02,2.05
152,803,mount isa,84,AU,1611952848,61,-20.7333,139.5,27.0,2.57
153,804,kupino,100,RU,1611953381,97,54.3663,77.2981,-10.66,3.34
154,800,garowe,0,SO,1611952808,84,8.4054,48.4845,18.57,5.76
155,800,sorland,0,NO,1611953381,89,67.667,12.6934,-1.3,4.87
156,803,port blair,84,IN,1611953232,81,11.6667,92.75,26.04,3.49
157,800,hirado,0,JP,1611953344,51,33.3597,129.5531,1.67,5.36
158,800,esperance,1,AU,1611953244,94,-33.8667,121.9,13.0,2.57
159,803,walvis bay,78,NA,1611953382,77,-22.9575,14.5053,18.66,3.6
160,500,rundu,94,NA,1611952848,89,-17.9333,19.7667,20.49,2.08
161,803,tasiilaq,75,GL,1611953257,86,65.6145,-37.6368,-8.0,9.77
162,804,bridgend,100,GB,1611953382,100,51.5058,-3.5772,7.66,3.6
163,801,palmer,20,US,1611953382,45,42.1584,-72.3287,-8.83,11.32
164,800,teknaf,0,BD,1611953243,56,20.8624,92.3058,16.67,4.02
165,800,sao joao da barra,0,BR,1611953279,58,-21.6403,-41.0511,29.0,9.26
166,800,korla,0,CN,1611953383,83,41.7597,86.1469,-5.05,1.57
167,500,puerto ayora,20,EC,1611953235,66,-0.7393,-90.3518,28.6,5.66
168,801,asbury park,20,US,1611953249,36,40.2204,-74.0121,-2.77,11.32
169,800,yumen,0,CN,1611952851,74,40.2833,97.2,-5.9,6.77
170,500,port hardy,90,CA,1611953383,81,50.6996,-127.4199,5.39,5.66
171,800,hualmay,6,PE,1611953264,65,-11.0964,-77.6139,24.03,4.65
172,804,lorengau,98,PG,1611953245,78,-2.0226,147.2712,28.14,4.34
173,800,taoudenni,0,ML,1611952852,20,22.6783,-3.9836,22.74,5.54
174,804,wasilla,90,US,1611952775,58,61.5814,-149.4394,-5.19,4.12
175,800,taywarah,0,AF,1611953384,70,33.35,64.4167,-2.42,0.24
176,804,mokhsogollokh,100,RU,1611953384,80,61.4681,128.9203,-41.48,0.04
177,600,juneau,90,US,1611953384,80,58.3019,-134.4197,-4.81,2.83
178,803,sao filipe,77,CV,1611953256,56,14.8961,-24.4956,24.23,4.84
179,804,sasykoli,91,RU,1611953384,92,47.5515,46.9968,0.27,1.0
180,801,vila franca do campo,20,PT,1611953251,88,37.7167,-25.4333,14.71,3.09
181,804,kisangani,100,CD,1611953384,87,0.5167,25.2,23.02,0.95
182,800,hilton head island,1,US,1611953373,43,32.2163,-80.7526,8.5,2.57
183,800,timizart,0,DZ,1611953385,61,36.8,4.2667,14.26,2.34
184,801,leh,24,IN,1611953385,65,34.1667,77.5833,-17.69,1.09
185,803,bundaberg,75,AU,1611953385,94,-24.85,152.35,22.7,4.63
186,804,kokopo,99,PG,1611953309,82,-4.352,152.2633,27.46,6.01
187,800,lagoa,8,PT,1611953268,76,39.05,-27.9833,15.06,5.03
188,500,flinders,99,AU,1611953197,99,-34.5833,150.8552,21.67,3.13
189,800,sept-iles,10,CA,1611953311,52,50.2001,-66.3821,-9.88,3.09
190,500,blantyre,100,MW,1611953386,80,-15.785,35.0085,21.9,1.39
191,803,camacha,75,PT,1611953386,77,33.0833,-16.3333,17.0,5.66
192,802,rawson,30,AR,1611953271,53,-43.3002,-65.1023,15.74,8.28
193,801,kaeo,17,NZ,1611953245,94,-35.1,173.7833,15.56,2.68
194,600,havoysund,75,NO,1611953219,79,70.9963,24.6622,-6.99,5.66
195,804,morondava,100,MG,1611953386,77,-20.2833,44.2833,28.08,1.45
196,800,manica,0,FR,1611953386,87,49.0,-1.1667,8.0,4.12
197,804,urdoma,100,RU,1611953387,97,61.7533,48.5442,-6.12,3.42
198,800,kuchaman,0,IN,1611953171,42,27.15,74.85,9.49,1.29
199,800,faya,0,SA,1611953248,36,18.3851,42.4509,15.5,4.63
200,803,gaillac,75,FR,1611953387,93,43.9016,1.8969,11.17,3.09
201,800,athabasca,0,CA,1611953104,78,54.7169,-113.2854,-18.53,1.54
202,800,longkou,0,CN,1611953387,89,37.6508,120.3286,0.52,2.16
203,802,fortuna,40,US,1611953234,87,40.5982,-124.1573,10.74,2.06
204,804,srednekolymsk,100,RU,1611952837,83,67.45,153.6833,-35.01,1.5
205,601,khorosheve,90,UA,1611953387,100,49.8528,36.2195,-1.06,6.0
206,804,seymchan,100,RU,1611953388,85,62.8833,152.4333,-30.83,1.2
207,803,nago,75,JP,1611953388,76,26.5881,127.9761,10.86,2.57
208,803,porto santo,75,PT,1611953388,77,33.072,-16.3415,17.0,5.66
209,600,swift current,1,CA,1611953209,85,50.2834,-107.8014,-13.0,4.12
210,800,pevek,5,RU,1611953252,85,69.7008,170.3133,-33.87,1.3
211,803,college,75,US,1611953217,71,64.8569,-147.8028,-19.07,1.1
212,803,pimentel,75,PE,1611953388,54,-6.8367,-79.9342,27.0,8.75
213,804,latung,93,PH,1611953388,76,5.5,120.8833,27.39,4.66
214,500,bengkulu,100,ID,1611953388,88,-3.8004,102.2655,24.03,2.8
215,801,isangel,20,VU,1611953389,88,-19.55,169.2667,25.0,6.77
216,800,adre,0,TD,1611953389,23,13.4667,22.2,20.06,9.52
217,800,plettenberg bay,0,ZA,1611953389,76,-34.0527,23.3716,17.64,1.74
218,801,bucerias,20,MX,1611953389,57,20.75,-105.3333,26.0,5.14
219,500,prabumulih,100,ID,1611953389,97,-3.45,104.25,22.91,1.3
220,800,broken hill,0,AU,1611953372,68,-31.95,141.4333,19.0,7.2
221,802,comodoro rivadavia,40,AR,1611953187,45,-45.8667,-67.5,17.0,4.12
222,803,cimislia,70,MD,1611953390,93,46.52,28.7842,-4.0,1.54
223,801,norman wells,20,CA,1611953263,68,65.282,-126.8329,-34.0,1.03
224,501,bolobo,100,CD,1611953390,88,-2.1667,16.2333,23.84,1.41
225,802,notre-dame-de-gravenchon,40,FR,1611953390,93,49.4894,0.5719,7.15,4.63
226,501,santa helena,99,BR,1611953390,76,-2.2311,-45.3,27.11,2.04
227,801,yar-sale,16,RU,1611953244,80,66.8333,70.8333,-40.76,2.04
228,801,lerwick,24,GB,1611953391,80,60.1545,-1.1494,0.0,5.14
229,800,dawlatabad,0,AF,1611953391,53,36.4141,64.9053,7.13,1.2
230,800,bubaque,0,GW,1611953235,72,11.2833,-15.8333,25.94,6.25
231,800,atar,0,MR,1611952807,21,20.5169,-13.0499,21.97,4.14
232,803,tilichiki,84,RU,1611953391,92,60.4667,166.1,-21.82,4.53
233,800,puyang,0,CN,1611953391,18,29.4603,119.8861,2.78,0.99
234,802,nuevitas,40,CU,1611953392,53,21.5453,-77.2644,24.0,8.75
235,800,luderitz,0,NA,1611953276,39,-26.6481,15.1594,22.26,11.39
236,800,arraial do cabo,0,BR,1611952990,65,-22.9661,-42.0278,28.0,8.75
237,701,stabat,40,ID,1611953392,100,3.761,98.4513,25.0,1.03
238,600,vardo,90,NO,1611953270,93,70.3705,31.1107,-5.0,8.23
239,800,caucaia,0,BR,1611953392,74,-3.7361,-38.6531,27.88,6.17
240,803,nyurba,81,RU,1611953392,76,63.2842,118.3319,-45.47,0.99
241,801,touros,20,BR,1611952821,69,-5.1989,-35.4608,28.0,7.2
242,804,kirakira,100,SB,1611953282,80,-10.4544,161.9205,27.75,5.96
243,803,tabou,79,CI,1611952853,86,4.423,-7.3528,25.55,2.47
244,800,chuy,2,UY,1611953242,68,-33.6971,-53.4616,25.08,3.4
245,800,geilo,9,NO,1611953393,74,60.5333,8.2076,-11.67,3.68
246,804,nanortalik,100,GL,1611953238,90,60.1432,-45.2371,0.44,3.96
247,804,solnechnyy,100,RU,1611953393,88,50.7214,136.6319,-21.66,2.76
248,803,boa vista,75,BR,1611952853,43,2.8197,-60.6733,32.0,3.6
249,803,lakes entrance,83,AU,1611953388,97,-37.8811,147.981,18.89,3.43
250,804,sragen,100,ID,1611953393,90,-7.4264,111.0222,23.57,1.39
251,804,lazaro cardenas,99,MX,1611953394,59,17.9583,-102.2,28.42,4.09
252,803,san patricio,75,US,1611953214,49,28.017,-97.5169,22.28,6.69
253,803,kodiak,75,US,1611953110,69,57.79,-152.4072,1.0,7.2
254,801,jacqueville,20,CI,1611953394,89,5.2052,-4.4146,26.0,1.54
255,500,talcahuano,90,CL,1611953394,100,-36.7167,-73.1167,15.0,4.63
256,501,aitape,100,PG,1611953394,82,-3.1374,142.3475,26.07,3.53
257,802,sulphur springs,40,US,1611953353,44,33.1385,-95.6011,14.52,3.6
258,800,pisco,0,PE,1611953259,61,-13.7,-76.2167,25.31,5.14
259,804,bogorodskoye,96,RU,1611953394,97,56.55,37.8833,-2.71,5.69
260,803,thessalon,75,CA,1611952814,63,46.2501,-83.5666,-5.0,5.14
261,500,bambous virieux,75,MU,1611953220,78,-20.3428,57.7575,26.84,5.14
262,800,sharjah,0,AE,1611953395,72,25.3573,55.4033,19.15,1.54
263,802,barao de melgaco,40,BR,1611953395,66,-16.1944,-55.9675,30.0,1.03
264,800,bara,0,NG,1611953395,18,10.3744,10.7288,24.38,5.45
265,601,dyurtyuli,100,RU,1611953395,98,55.4911,54.8688,-3.38,5.48
266,804,saint george,90,US,1611953247,81,37.1041,-113.5841,6.36,2.06
267,804,cidreira,100,BR,1611953235,87,-30.1811,-50.2056,26.44,3.71
268,800,shingu,0,JP,1611952826,82,33.7333,135.9833,1.53,3.34
269,721,ponnani,20,IN,1611953396,73,10.767,75.9252,25.0,1.82
270,601,roald,90,NO,1611953227,93,62.5833,6.1333,-0.04,5.66
271,803,sao gabriel da cachoeira,55,BR,1611953396,51,-0.1303,-67.0892,32.48,0.99
272,802,jinchang,33,CN,1611953396,63,38.4953,102.1739,-5.68,1.45
273,801,orel-izumrud,20,RU,1611952805,93,43.4583,39.9244,2.0,3.0
274,800,dhidhdhoo,1,MV,1611953251,69,6.8833,73.1,26.92,3.25
275,804,la ronge,100,CA,1611953241,78,55.1001,-105.2842,-13.0,2.06
276,802,beloha,36,MG,1611953278,82,-25.1667,45.05,25.35,4.51
277,803,presidencia roque saenz pena,83,AR,1611953397,34,-26.7852,-60.4388,36.26,2.49
278,800,sechura,1,PE,1611953397,56,-5.5569,-80.8222,28.11,6.99
279,804,shihezi,89,CN,1611953397,93,44.3,86.0333,-17.01,1.04
280,500,souillac,75,MU,1611953234,78,-20.5167,57.5167,27.0,5.14
281,804,lebrija,90,ES,1611953397,94,36.9208,-6.0753,14.66,2.06
282,800,panzhihua,0,CN,1611953397,58,26.5851,101.7128,6.11,0.38
283,500,constitucion,100,CL,1611953241,83,-35.3333,-72.4167,17.82,3.45
284,802,vanavara,47,RU,1611953398,79,60.34,102.2797,-39.44,3.51
285,800,ancud,0,CL,1611952817,51,-41.8697,-73.8203,15.94,4.63
286,801,barentu,11,ER,1611953398,84,15.1139,37.5928,16.34,1.79
287,804,honiton,100,GB,1611953398,85,50.7996,-3.189,7.24,2.4
288,803,bhainsdehi,72,IN,1611953398,38,21.6467,77.6325,11.73,1.47
289,800,san angelo,1,US,1611953172,55,31.4638,-100.437,16.36,6.17
290,600,svetlaya,100,RU,1611953399,89,46.5389,138.3297,-15.08,5.96
291,802,kichera,33,RU,1611953399,71,55.9375,110.0997,-31.5,2.02
292,800,nouna,0,BF,1611953399,17,12.7333,-3.8667,25.2,3.36
293,802,jackson,40,US,1611953399,65,42.4165,-122.8345,7.38,1.22
294,801,el cope,20,PA,1611953399,46,8.6167,-80.6,29.92,6.17
295,802,quepos,40,CR,1611953262,53,9.4236,-84.1652,22.39,10.29
296,500,pimenta bueno,74,BR,1611953399,88,-11.6725,-61.1936,27.7,1.05
297,803,mandalgovi,59,MN,1611952531,90,45.7625,106.2708,-9.26,5.99
298,802,namibe,25,AO,1611953253,75,-15.1961,12.1522,23.44,5.23
299,804,durban,90,ZA,1611953400,83,-29.8579,31.0292,23.6,1.54
300,801,arman,20,RU,1611953400,78,59.7,150.1667,-27.25,5.1
301,601,iqaluit,1,CA,1611953088,70,63.7506,-68.5145,-25.0,8.23
302,804,nelson bay,99,AU,1611953149,94,-32.7167,152.15,21.89,3.6
303,803,miraflores,75,MX,1611953400,30,19.2167,-98.8083,21.57,3.09
304,803,ballymena,75,GB,1611953400,87,54.8636,-6.2763,5.19,6.17
305,801,gat,20,IL,1611952683,100,31.61,34.7642,10.39,5.02
306,801,bathsheba,20,BB,1611953249,65,13.2167,-59.5167,28.0,7.2
307,804,navahrudak,100,BY,1611953401,98,53.6,25.8333,-6.32,4.17
308,803,grindavik,75,IS,1611953263,75,63.8424,-22.4338,2.0,3.09
309,701,valley city,90,US,1611953401,100,46.9233,-98.0032,-7.0,5.66
310,804,chernushka,100,RU,1611953402,95,56.5072,56.0766,-3.93,3.15
311,802,kahului,40,US,1611953214,64,20.8947,-156.47,21.64,8.75
312,600,rossland,100,CA,1611953402,95,49.0831,-117.8022,0.69,1.15
313,804,victor harbor,100,AU,1611953402,77,-35.5667,138.6167,17.78,0.89
314,804,biak,100,ID,1611953283,71,-0.9131,122.8766,24.36,1.79
315,801,ixtapa,20,MX,1611953402,57,20.7,-105.2,26.0,5.14
316,800,saint-pierre,0,RE,1611952841,65,-21.3393,55.4781,24.55,2.06
317,601,flin flon,90,CA,1611953402,85,54.7682,-101.865,-11.0,3.6
318,804,hambantota,100,LK,1611953262,78,6.1241,81.1185,24.42,3.32
319,804,kasama,100,ZM,1611953403,90,-10.2129,31.1808,17.07,1.22
320,802,bintulu,40,MY,1611953403,100,3.1667,113.0333,25.0,2.96
321,802,solone,40,UA,1611953403,86,48.2081,34.8721,0.28,6.0
322,804,mnogovershinnyy,100,RU,1611953403,92,53.9353,139.9242,-23.03,2.2
323,804,naryan-mar,100,RU,1611953404,84,67.6713,53.087,-24.82,6.32
324,804,mayo,90,US,1611952816,40,38.8876,-76.5119,-0.2,6.69
325,800,geraldton,0,AU,1611953140,21,-28.7667,114.6,28.0,10.29
326,803,narsaq,75,GL,1611953268,29,60.9167,-46.05,7.0,11.83
327,800,koumac,1,NC,1611953404,72,-20.5667,164.2833,26.22,2.08
328,802,pacific grove,40,US,1611953261,62,36.6177,-121.9166,12.06,2.06
329,804,mosetse,100,BW,1611953404,88,-20.75,26.65,20.84,2.9
330,803,yulara,75,AU,1611952839,65,-25.2406,130.9889,26.0,5.14
331,804,ekhabi,100,RU,1611953405,91,53.5102,142.9671,-20.51,4.91
332,802,porbandar,47,IN,1611953375,35,21.6422,69.6093,17.33,5.24
333,801,qasigiannguit,20,GL,1611953384,55,68.8193,-51.1922,-17.0,2.06
334,804,bontang,97,ID,1611953405,84,0.1333,117.5,25.04,3.82
335,804,thinadhoo,99,MV,1611953229,78,0.5333,72.9333,27.34,5.95
336,803,suntar,83,RU,1611953405,76,62.1444,117.6319,-45.41,1.14
337,803,ternate,76,ID,1611953406,82,0.8,127.4,26.2,3.05
338,501,margate,98,GB,1611953266,82,51.3813,1.3862,8.65,7.29
339,804,turukhansk,96,RU,1611953406,77,65.8167,87.9833,-34.65,2.46
340,800,aguimes,0,ES,1611953406,72,27.9054,-15.4461,19.4,1.03
341,804,chunoyar,100,RU,1611953406,85,57.4467,97.3217,-28.64,2.22
342,500,neiafu,90,TO,1611952816,94,-18.65,-173.9833,24.0,4.63
343,800,abu dhabi,0,AE,1611952999,56,24.4667,54.3667,20.57,3.6
344,800,praya,0,CV,1611953264,57,14.9215,-23.5087,24.0,7.72
345,804,batagay,100,RU,1611953407,75,67.6333,134.6333,-42.53,0.18
346,804,almeirim,91,BR,1611953407,69,-1.5233,-52.5817,28.56,1.42
347,803,aurangabad,81,IN,1611953105,31,19.8833,75.3333,18.02,2.75
348,800,dickinson,1,US,1611953307,63,29.4608,-95.0513,16.03,5.14
349,800,bol,0,TD,1611953407,36,13.4586,14.7147,22.81,8.42
350,804,sao miguel do araguaia,100,BR,1611953407,85,-13.275,-50.1628,26.2,2.17
351,804,chumikan,100,RU,1611953385,87,54.7183,135.315,-25.04,4.65
352,800,waddan,0,LY,1611953407,46,29.1614,16.139,14.36,1.79
353,802,buchanan,40,LR,1611953350,89,5.8808,-10.0467,27.0,2.65
354,800,sakakah,0,SA,1611953250,50,29.9697,40.2064,11.0,7.2
355,804,ust-omchug,91,RU,1611953273,80,61.15,149.6333,-33.73,2.5
356,804,port augusta,90,AU,1611953408,72,-32.5,137.7667,16.87,5.66
357,804,lundazi,100,ZM,1611953408,90,-12.2929,33.1782,19.7,0.89
358,802,dongkan,44,CN,1611953408,90,33.9997,119.8308,0.75,3.69
359,801,vila velha,20,BR,1611953200,61,-20.3297,-40.2925,28.36,8.75
360,800,clyde river,1,CA,1611953237,84,70.4692,-68.5914,-23.0,4.12
361,804,richards bay,93,ZA,1611953250,87,-28.783,32.0377,22.53,0.94
362,804,taman,99,RU,1611953409,53,45.2117,36.7161,6.84,10.0
363,800,ahipara,0,NZ,1611953272,58,-35.1667,173.1667,19.57,3.48
364,500,inongo,100,CD,1611953280,76,-1.95,18.2667,25.13,0.58
365,600,berlevag,75,NO,1611952843,79,70.8578,29.0864,-6.37,3.6
366,804,yelizovo,88,RU,1611953409,85,53.1873,158.3805,-15.0,3.0
367,804,viedma,93,AR,1611953243,38,-40.8135,-62.9967,22.78,9.27
368,803,xapuri,73,BR,1611953237,63,-10.6517,-68.5044,29.77,2.1
369,804,laurel,90,US,1611953409,43,39.0993,-76.8483,-0.67,7.2
370,800,price,1,US,1611953272,48,39.5994,-110.8107,3.0,3.6
371,802,bull savanna,27,JM,1611953410,67,17.8868,-77.5902,25.47,1.41
372,500,faanui,52,PF,1611953232,69,-16.4833,-151.75,27.13,3.03
373,804,scarborough,95,GB,1611953410,89,54.2797,-0.4044,3.33,1.79
374,804,chaumont,100,FR,1611953410,90,48.1167,5.1333,7.22,2.68
375,801,inhambane,20,MZ,1611953410,84,-23.865,35.3833,26.18,1.7
376,501,batemans bay,100,AU,1611953286,97,-35.7167,150.1833,18.85,0.89
377,803,rio grande,75,BR,1611953190,83,-32.035,-52.0986,28.17,1.54
378,801,beringovskiy,16,RU,1611953411,86,63.05,179.3167,-26.65,4.17
379,804,kawalu,100,ID,1611953122,90,-7.3817,108.2082,21.76,0.76
380,800,requena,0,ES,1611953411,52,39.4883,-1.1004,18.15,4.12
381,804,hamilton,90,US,1611953045,55,39.1834,-84.5333,-0.34,0.58
382,802,west bay,40,KY,1611953411,61,19.3667,-81.4167,25.73,6.69
383,800,fukue,0,JP,1611953206,61,32.6881,128.8419,6.3,4.57
384,803,businga,65,CD,1611953411,84,3.3333,20.8833,22.34,0.81
385,803,necochea,76,AR,1611953241,48,-38.5473,-58.7368,24.44,2.14
386,500,ruidoso,1,US,1611953412,87,33.3317,-105.673,4.0,15.95
387,800,joshimath,0,IN,1611953412,46,30.5667,79.5667,0.98,3.99
388,800,umri,0,IN,1611953412,53,26.5106,78.9367,8.42,2.63
389,800,yatou,0,CN,1611953412,90,37.15,122.3833,0.33,3.82
390,803,lagoa nova,75,BR,1611953412,56,-6.1,-36.4833,26.35,6.03
391,801,santa marta,20,CO,1611953412,66,11.2408,-74.199,30.0,2.57
392,804,masasi,87,TZ,1611953413,98,-10.7167,38.8,21.4,2.12
393,800,bluefield,1,US,1611953171,58,37.2698,-81.2223,-3.89,4.63
394,800,samba,0,IN,1611953413,49,32.5667,75.1167,8.66,1.52
395,500,ambilobe,98,MG,1611953413,93,-13.2,49.05,23.42,0.88
396,601,ketchikan,90,US,1611952843,86,55.3422,-131.6461,0.0,3.09
397,803,marsh harbour,83,BS,1611953413,71,26.5412,-77.0636,19.0,8.3
398,802,krasnoselkup,46,RU,1611953413,81,65.7,82.4667,-34.57,2.84
399,804,sungairaya,100,ID,1611953413,93,0.7,108.9,24.04,4.6
400,802,brae,45,GB,1611953414,80,60.3964,-1.353,0.0,5.14
401,804,leua,97,SK,1611953414,95,48.2156,18.6071,4.16,1.34
402,600,goderich,100,CA,1611953192,74,43.7501,-81.7165,-5.0,8.23
403,802,miri,40,MY,1611952832,100,4.4148,114.0089,25.0,1.03
404,804,weligama,89,LK,1611953414,88,5.9667,80.4167,24.12,0.41
405,804,alugan,100,PH,1611953414,84,12.2188,125.4808,25.31,10.04
406,804,akdepe,100,TM,1611953263,65,42.0551,59.3788,4.49,4.12
407,800,dutse,0,NG,1611953414,23,11.7594,9.3392,20.79,4.27
408,804,neftcala,100,AZ,1611953414,85,39.3742,49.2472,7.81,3.38
409,500,vaitape,53,PF,1611953415,69,-16.5167,-151.75,27.17,2.99
410,801,pontiac,20,US,1611953317,50,42.6389,-83.2911,-3.63,3.09
411,600,sol-iletsk,100,RU,1611953415,97,51.1631,54.9918,-3.25,5.97
412,500,itarema,100,BR,1611953289,75,-2.9248,-39.9167,27.37,6.2
413,804,sibolga,100,ID,1611953415,91,1.7427,98.7792,23.46,0.6
414,804,khandyga,88,RU,1611952836,75,62.6667,135.6,-47.0,0.74
415,800,jumla,0,NP,1611953235,71,29.2747,82.1838,-2.86,1.51
416,800,calvinia,0,ZA,1611952819,52,-31.4707,19.776,15.26,1.34
417,803,rio gallegos,75,AR,1611952816,24,-51.6226,-69.2181,12.0,13.38
418,800,mehamn,0,NO,1611953246,73,71.0357,27.8492,-7.0,2.06
419,601,kez,100,RU,1611953416,97,57.8979,53.7152,-5.24,3.54
420,804,leningradskiy,97,RU,1611953266,84,69.3833,178.4167,-31.03,4.01
421,800,bukachacha,0,RU,1611953416,79,52.9833,116.9167,-34.14,1.0
422,800,okhotsk,0,RU,1611953246,84,59.3833,143.3,-25.29,2.63
423,801,masterton,24,NZ,1611953416,61,-40.9597,175.6575,14.64,2.24
424,800,agadir,0,MA,1611953416,63,30.4202,-9.5982,16.0,2.57
425,802,bumba,39,CD,1611953416,93,2.1833,22.4667,22.36,1.74
426,803,kenai,75,US,1611953215,85,60.5544,-151.2583,-10.61,3.09
427,800,fos-sur-mer,0,FR,1611953417,71,43.4377,4.9446,11.3,3.09
428,804,zaozerne,100,UA,1611953417,65,45.1582,33.2787,6.67,3.58
429,802,kokstad,49,ZA,1611953417,93,-30.5472,29.4241,15.42,1.3
430,800,rincon,1,US,1611953417,33,32.296,-81.2354,12.24,3.09
431,800,pascagoula,1,US,1611953240,34,30.3658,-88.5561,16.17,1.54
432,800,opunake,10,NZ,1611953408,71,-39.4556,173.8583,13.35,2.68
433,800,tiznit,0,MA,1611952831,47,29.5833,-9.5,17.49,0.55
434,801,hauknes,20,NO,1611953418,78,66.2833,14.0667,-13.2,1.54
435,802,puerto escondido,40,MX,1611952846,70,15.85,-97.0667,30.0,2.06
436,600,elmira,90,US,1611953418,63,42.0898,-76.8077,-8.8,6.17
437,801,bilibino,17,RU,1611953263,79,68.0546,166.4372,-31.85,2.21
438,804,key largo,100,US,1611953253,59,25.0865,-80.4473,21.1,6.75
439,501,vanimo,100,PG,1611953262,82,-2.6741,141.3028,25.69,4.1
440,801,ilulissat,20,GL,1611953236,55,69.2167,-51.1,-17.0,2.06
441,804,libin,100,BE,1611953418,91,49.9833,5.2833,6.3,4.02
442,802,te anau,45,NZ,1611953256,76,-45.4167,167.7167,8.77,0.35
443,701,taraz,0,KZ,1611953419,92,42.9,71.3667,-9.0,2.0
444,802,port-gentil,40,GA,1611952829,83,-0.7193,8.7815,27.0,2.06
445,804,vao,98,NC,1611953242,77,-22.6667,167.4833,24.31,9.98
446,800,haicheng,0,CN,1611953419,94,40.8516,122.7475,-11.06,1.1
447,803,mushabani,65,IN,1611953419,37,22.5167,86.45,16.48,1.43
448,804,belaya gora,100,RU,1611953419,85,68.5333,146.4167,-33.54,1.5
449,800,kargasok,0,RU,1611953264,84,59.0556,80.8572,-33.54,4.04
450,804,teguldet,98,RU,1611953419,89,57.3064,88.1667,-23.26,2.98
451,801,the valley,20,AI,1611952837,73,18.217,-63.0578,25.72,5.14
452,502,alofi,90,NU,1611953224,94,-19.0595,-169.9187,25.0,7.72
453,800,yarim,0,YE,1611953420,71,14.298,44.3779,10.26,0.67
454,802,fort portal,25,UG,1611953420,44,0.6617,30.2748,20.27,0.99
455,800,knysna,0,ZA,1611953420,77,-34.0363,23.0471,17.0,1.03
456,500,quatre cocos,75,MU,1611953420,78,-20.2078,57.7625,26.83,5.14
457,801,nishihara,20,JP,1611953420,54,26.1842,127.7558,11.19,3.09
458,802,ulagan,26,RU,1611953421,83,50.6321,87.9563,-11.62,1.53
459,804,pangkalanbuun,100,ID,1611953309,96,-2.6833,111.6167,23.15,1.6
460,802,skjervoy,40,NO,1611953421,73,70.0311,20.9714,-6.0,10.29
461,801,cam ranh,20,VN,1611953421,68,11.9214,109.1591,22.0,4.12
462,801,general roca,20,AR,1611953421,56,-39.0333,-67.5833,23.0,2.57
463,802,henties bay,44,NA,1611953421,83,-22.116,14.2845,19.44,1.21
464,802,providencia,33,MX,1611953421,56,28.7167,-111.5833,19.33,4.92
465,800,de aar,0,ZA,1611953421,24,-30.6497,24.0123,24.93,4.75
466,741,crotone,90,IT,1611953422,93,39.0851,17.1178,2.0,9.26
467,800,mahon,0,ES,1611953422,94,39.8885,4.2658,13.0,2.57
468,800,jalu,0,LY,1611953244,69,29.0331,21.5482,12.98,3.16
469,800,havelock,1,US,1611953207,41,34.8791,-76.9013,3.9,5.14
470,600,suda,90,RU,1611953422,93,59.1525,37.5582,-3.0,3.0
471,804,krasnyy chikoy,100,RU,1611953422,88,50.3643,108.7512,-20.32,1.01
472,804,mpongwe,100,ZM,1611953422,94,-13.5091,28.155,18.08,1.14
473,800,edd,0,ER,1611953422,39,13.9297,41.6925,24.65,6.14
474,802,fairbanks,40,US,1611953048,77,64.8378,-147.7164,-19.11,1.54
475,800,mizdah,0,LY,1611953423,42,31.4451,12.9801,14.18,5.18
476,802,kalemie,45,CD,1611953423,83,-5.9475,29.1947,21.26,1.11
477,801,goundi,21,TD,1611953423,19,9.3627,17.366,26.26,1.63
478,800,dawson creek,1,CA,1611953423,71,55.7666,-120.2362,-18.0,1.18
479,803,prince rupert,75,CA,1611953423,69,54.3161,-130.3201,2.3,4.12
480,801,hobyo,19,SO,1611953423,74,5.3505,48.5268,24.38,7.49
481,801,taltal,22,CL,1611953423,56,-25.4,-70.4833,21.61,2.26
482,804,serebriya,95,UA,1611953424,85,48.4559,27.7192,-3.33,1.17
483,802,champerico,40,GT,1611953424,52,14.3,-91.9167,33.0,4.12
484,701,tam ky,75,VN,1611953242,88,15.5667,108.4833,20.0,0.51
485,804,achit,100,RU,1611953424,92,56.7985,57.8994,-6.29,2.7
486,804,antalaha,93,MG,1611953368,88,-14.9003,50.2788,24.36,1.56
487,802,san cristobal,40,VE,1611953424,58,7.7669,-72.225,30.0,5.14
488,800,san carlos de bariloche,0,AR,1611953212,24,-41.1456,-71.3082,22.74,8.23
489,803,kloulklubed,75,PW,1611953424,100,7.0419,134.2556,26.0,3.09
490,800,bonthe,0,SL,1611953425,83,7.5264,-12.505,26.05,3.19
491,801,porto seguro,20,BR,1611953357,61,-16.4497,-39.0647,28.0,6.17
492,800,hami,0,CN,1611953425,85,42.8,93.45,-6.93,1.01
493,804,saint anthony,90,US,1611953425,68,45.0205,-93.218,-4.86,3.09
494,804,santa rosalia,100,MX,1611953425,43,27.3167,-112.2833,19.69,1.99
495,501,gizo,99,SB,1611953425,78,-8.103,156.8419,28.44,6.15
496,804,portland,90,US,1611953233,87,45.5234,-122.6762,6.62,1.54
497,800,thanh hoa,0,VN,1611953425,92,19.8,105.7667,15.02,0.54
498,800,strai,3,NO,1611953425,85,58.2,7.9,-8.83,2.57
499,802,sibu,40,MY,1611953425,100,2.3,111.8167,23.93,0.24
500,803,kaputa,70,ZM,1611953426,84,-8.4689,29.6619,20.62,1.05
501,800,radaur,0,IN,1611953426,55,30.0333,77.15,8.19,3.31
502,804,jardim,99,BR,1611953426,75,-21.4803,-56.1381,27.34,3.6
503,801,natagaima,18,CO,1611953426,48,3.6206,-75.0941,31.77,1.69
504,803,komsomolskiy,57,UZ,1611953426,51,40.4272,71.7189,-1.0,2.06
505,803,ponferrada,75,ES,1611953426,99,42.5466,-6.5962,9.06,1.87
506,801,marica,20,BR,1611953426,58,-22.9194,-42.8186,32.78,5.66
507,800,avera,1,US,1611953426,32,33.194,-82.5271,9.98,0.74
508,800,davila,5,PH,1611953427,77,18.4726,120.5763,21.68,12.34
509,800,san martin,0,AR,1611953427,25,-33.081,-68.4681,31.0,3.09
510,804,upernavik,86,GL,1611953202,82,72.7868,-56.1549,-21.84,5.34
511,804,dingle,100,PH,1611953251,90,10.9995,122.6711,23.12,5.36
512,500,kieta,43,PG,1611953427,79,-6.2167,155.6333,28.03,4.75
513,804,moses lake,90,US,1611953337,81,47.1301,-119.2781,3.49,2.57
514,804,freeport,90,US,1611953404,36,40.6576,-73.5832,-3.7,8.23
515,800,kutum,10,SD,1611952844,34,14.2,24.6667,14.15,5.28
516,500,buin,90,CL,1611953428,56,-33.7333,-70.75,22.34,2.06
517,804,tevriz,100,RU,1611953428,91,57.509,72.4042,-17.82,2.98
518,800,shahdadkot,2,PK,1611953428,32,27.8477,67.9055,11.99,1.09
519,801,machado,20,BR,1611953428,50,-21.6747,-45.9197,26.0,1.09
520,802,stornoway,40,GB,1611953428,81,58.2093,-6.3865,2.68,4.12
521,804,wadi musa,90,JO,1611953428,87,30.3222,35.4793,3.07,6.73
522,802,natchitoches,40,US,1611953428,39,31.7668,-93.1335,17.0,3.6
523,701,changji,94,CN,1611953428,85,44.0167,87.3167,-17.0,0.94
524,804,oyem,98,GA,1611953428,93,1.5995,11.5793,21.31,1.25
525,800,aden,0,YE,1611953188,75,12.7794,45.0367,23.46,4.89
526,800,brufut,0,GM,1611953429,47,13.3814,-16.7518,25.0,7.87
527,802,susangerd,40,IR,1611953429,68,31.5608,48.1831,18.0,4.12
528,804,katangli,100,RU,1611953429,93,51.7102,143.2326,-17.12,5.41
529,804,yuncheng,89,CN,1611953429,71,35.0231,110.9928,1.87,1.71
530,803,agaro,56,ET,1611953429,49,7.85,36.65,18.43,1.2
531,801,mucurapo,20,TT,1611953429,48,10.6667,-61.5333,29.17,4.12
532,800,dinguiraye,0,GN,1611953429,19,11.3,-10.7167,23.39,0.59
533,600,iwanai,94,JP,1611953430,96,42.9744,140.5089,-2.26,5.81
534,501,boca do acre,100,BR,1611953430,90,-8.7522,-67.3978,27.1,1.46
535,804,escarcega,100,MX,1611953430,71,18.6089,-90.7454,25.24,1.53
536,600,sharan,100,RU,1611953430,98,54.8167,54.0,-3.57,4.55
537,802,waspan,40,NI,1611953430,56,14.7419,-83.9717,30.0,3.09
538,803,husavik,75,IS,1611953261,86,66.0449,-17.3389,-6.0,1.03
539,800,umm kaddadah,0,SD,1611953430,25,13.6017,26.6876,19.1,8.82
540,802,byron bay,40,AU,1611953391,94,-28.65,153.6167,19.82,1.19
